1715239948.798164 GPSRD:$GNGGA,073242.000,4107.6866,N,06939.9604,E,2,8,1.09,787.9,M,-38.8,M,,*6C
1715239951.016185 GPSRD:$GNGGA,073250.000,4107.6867,N,06939.9603,E,2,8,1.09,787.6,M,-38.8,M,,*66
1715239953.226939 GPSRD:$GNGGA,073257.000,4107.6865,N,06939.9602,E,2,8,1.09,787.3,M,-38.8,M,,*67
1715239955.437721 GPSRD:$GNGGA,073259.000,4107.6869,N,06939.9599,E,2,8,1.09,787.4,M,-38.8,M,,*63
1715239957.646953 GPSRD:$GNGGA,073301.000,4107.6870,N,06939.9603,E,2,8,1.09,787.7,M,-38.8,M,,*64
1715239959.85512 GPSRD:$GNGGA,073303.000,4107.6871,N,06939.9604,E,2,8,1.09,788.0,M,-38.8,M,,*68
1715239962.066164 GPSRD:$GNGGA,073306.000,4107.6877,N,06939.9608,E,2,8,1.09,788.4,M,-38.8,M,,*63
1715239964.275081 GPSRD:$GNGGA,073308.000,4107.6880,N,06939.9609,E,2,8,1.09,788.7,M,-38.8,M,,*67
1715239966.484517 GPSRD:$GNGGA,073310.000,4107.6885,N,06939.9603,E,2,8,1.09,788.7,M,-38.8,M,,*61
1715239968.692489 GPSRD:$GNGGA,073312.000,4107.6884,N,06939.9592,E,2,8,1.09,788.9,M,-38.8,M,,*67
1715239970.901073 GPSRD:$GNGGA,073314.000,4107.6880,N,06939.9584,E,2,8,1.09,789.1,M,-38.8,M,,*6B
1715239973.111893 GPSRD:$GNGGA,073317.000,4107.6869,N,06939.9574,E,2,8,1.09,788.9,M,-38.8,M,,*69
1715239975.320994 GPSRD:$GNGGA,073319.000,4107.6868,N,06939.9579,E,2,8,1.09,789.1,M,-38.8,M,,*62
1715239977.530446 GPSRD:$GNGGA,073321.000,4107.6874,N,06939.9589,E,2,8,1.09,789.2,M,-38.8,M,,*68
1715239979.738557 GPSRD:$GNGGA,073323.000,4107.6880,N,06939.9602,E,2,8,1.09,789.1,M,-38.8,M,,*62
1715239981.946735 GPSRD:$GNGGA,073325.000,4107.6878,N,06939.9615,E,2,8,1.09,789.2,M,-38.8,M,,*66
1715239984.157855 GPSRD:$GNGGA,073328.000,4107.6869,N,06939.9631,E,2,8,1.09,789.1,M,-38.8,M,,*6E
1715239986.367366 GPSRD:$GNGGA,073330.000,4107.6863,N,06939.9637,E,2,8,1.09,788.8,M,-38.8,M,,*63
1715239988.577566 GPSRD:$GNGGA,073332.000,4107.6872,N,06939.9642,E,2,8,1.09,789.0,M,-38.8,M,,*6A
1715239990.7873 GPSRD:$GNGGA,073334.000,4107.6879,N,06939.9640,E,2,8,1.09,789.0,M,-38.8,M,,*65
1715239992.99575 GPSRD:$GNGGA,073336.000,4107.6887,N,06939.9637,E,2,8,1.09,788.8,M,-38.8,M,,*6F
1715239995.206843 GPSRD:$GNGGA,073339.000,4107.6903,N,06939.9630,E,2,8,1.10,788.8,M,-38.8,M,,*62
1715239997.41776 GPSRD:$GNGGA,073341.000,4107.6913,N,06939.9629,E,2,8,1.09,788.7,M,-38.8,M,,*63
1715239999.626771 GPSRD:$GNGGA,073343.000,4107.6920,N,06939.9624,E,2,8,1.09,788.9,M,-38.8,M,,*62
1715240001.834795 GPSRD:$GNGGA,073345.000,4107.6924,N,06939.9615,E,2,8,1.09,789.2,M,-38.8,M,,*68
1715240004.045657 GPSRD:$GNGGA,073348.000,4107.6924,N,06939.9602,E,2,8,1.09,789.3,M,-38.8,M,,*62
1715240006.254817 GPSRD:$GNGGA,073350.000,4107.6923,N,06939.9599,E,2,8,1.09,789.4,M,-38.8,M,,*6A
1715240008.465357 GPSRD:$GNGGA,073352.000,4107.6921,N,06939.9589,E,2,8,1.09,789.4,M,-38.8,M,,*6B
1715240010.67356 GPSRD:$GNGGA,073354.000,4107.6918,N,06939.9577,E,2,8,1.09,789.5,M,-38.8,M,,*67
1715240012.882247 GPSRD:$GNGGA,073356.000,4107.6918,N,06939.9556,E,2,8,1.09,789.7,M,-38.8,M,,*64
1715240015.093031 GPSRD:$GNGGA,073359.000,4107.6910,N,06939.9537,E,2,8,1.09,790.0,M,-38.8,M,,*6B
1715240017.304023 GPSRD:$GNGGA,073401.000,4107.6906,N,06939.9522,E,2,8,1.09,790.0,M,-38.8,M,,*62
1715240019.514042 GPSRD:$GNGGA,073403.000,4107.6899,N,06939.9511,E,2,8,1.09,790.0,M,-38.8,M,,*67
1715240021.723261 GPSRD:$GNGGA,073405.000,4107.6887,N,06939.9514,E,2,8,1.09,789.9,M,-38.8,M,,*6A
1715240023.931825 GPSRD:$GNGGA,073407.000,4107.6876,N,06939.9522,E,2,8,1.09,790.0,M,-38.8,M,,*62
1715240026.142895 GPSRD:$GNGGA,073410.000,4107.6870,N,06939.9537,E,2,8,1.09,790.1,M,-38.8,M,,*67
1715240028.354148 GPSRD:$GNGGA,073412.000,4107.6868,N,06939.9548,E,2,8,1.09,790.0,M,-38.8,M,,*65
1715240030.563971 GPSRD:$GNGGA,073414.000,4107.6863,N,06939.9560,E,2,8,1.09,789.9,M,-38.8,M,,*63
1715240032.773672 GPSRD:$GNGGA,073416.000,4107.6857,N,06939.9570,E,2,8,1.09,789.9,M,-38.8,M,,*67
1715240034.983866 GPSRD:$GNGGA,073418.000,4107.6852,N,06939.9578,E,2,8,1.09,789.9,M,-38.8,M,,*64
1715240037.192806 GPSRD:$GNGGA,073421.000,4107.6847,N,06939.9586,E,2,8,1.09,789.5,M,-38.8,M,,*67
1715240039.404006 GPSRD:$GNGGA,073423.000,4107.6845,N,06939.9597,E,2,8,1.09,789.4,M,-38.8,M,,*66
1715240041.614235 GPSRD:$GNGGA,073425.000,4107.6835,N,06939.9610,E,2,8,1.09,789.2,M,-38.8,M,,*6D
1715240043.824248 GPSRD:$GNGGA,073427.000,4107.6834,N,06939.9619,E,2,8,1.09,789.0,M,-38.8,M,,*65
1715240046.03312 GPSRD:$GNGGA,073429.000,4107.6839,N,06939.9629,E,2,8,1.09,788.9,M,-38.8,M,,*6D
1715240048.244466 GPSRD:$GNGGA,073432.000,4107.6843,N,06939.9646,E,2,8,1.09,788.5,M,-38.8,M,,*6F
1715240050.455883 GPSRD:$GNGGA,073434.000,4107.6846,N,06939.9658,E,2,8,1.09,788.2,M,-38.8,M,,*64
1715240052.666489 GPSRD:$GNGGA,073436.000,4107.6848,N,06939.9663,E,2,8,1.09,787.9,M,-38.8,M,,*64
1715240054.874773 GPSRD:$GNGGA,073438.000,4107.6847,N,06939.9670,E,2,8,1.09,787.6,M,-38.8,M,,*68
1715240057.085905 GPSRD:$GNGGA,073441.000,4107.6848,N,06939.9688,E,2,8,1.09,787.0,M,-38.8,M,,*68
1715240059.295993 GPSRD:$GNGGA,073443.000,4107.6848,N,06939.9698,E,2,8,1.09,786.6,M,-38.8,M,,*6C
1715240061.506657 GPSRD:$GNGGA,073445.000,4107.6848,N,06939.9705,E,2,9,1.01,786.2,M,-38.8,M,,*62
1715240063.716552 GPSRD:$GNGGA,073447.000,4107.6839,N,06939.9711,E,2,9,1.02,786.5,M,-38.8,M,,*67
1715240065.926577 GPSRD:$GNGGA,073449.000,4107.6836,N,06939.9703,E,2,9,1.02,787.0,M,-38.8,M,,*61
1715240068.136414 GPSRD:$GNGGA,073452.000,4107.6835,N,06939.9686,E,2,9,1.02,787.7,M,-38.8,M,,*63
1715240070.348321 GPSRD:$GNGGA,073454.000,4107.6836,N,06939.9680,E,2,9,1.02,788.1,M,-38.8,M,,*69
1715240072.5603 GPSRD:$GNGGA,073456.000,4107.6834,N,06939.9669,E,2,9,1.02,788.2,M,-38.8,M,,*6D
1715240074.770485 GPSRD:$GNGGA,073458.000,4107.6829,N,06939.9660,E,2,9,1.02,788.5,M,-38.8,M,,*61
1715240076.981309 GPSRD:$GNGGA,073500.000,4107.6828,N,06939.9647,E,2,9,1.02,788.7,M,-38.8,M,,*6B
1715240079.190829 GPSRD:$GNGGA,073503.000,4107.6830,N,06939.9637,E,2,9,1.02,789.0,M,-38.8,M,,*60
1715240081.402977 GPSRD:$GNGGA,073505.000,4107.6830,N,06939.9631,E,2,9,1.02,789.2,M,-38.8,M,,*62
1715240083.613881 GPSRD:$GNGGA,073507.000,4107.6828,N,06939.9625,E,2,9,1.02,789.2,M,-38.8,M,,*6C
1715240085.823749 GPSRD:$GNGGA,073509.000,4107.6825,N,06939.9617,E,2,9,1.02,789.5,M,-38.8,M,,*69
1715240088.03463 GPSRD:$GNGGA,073511.000,4107.6824,N,06939.9609,E,2,9,1.05,789.7,M,-38.8,M,,*6B
1715240090.243998 GPSRD:$GNGGA,073514.000,4107.6818,N,06939.9595,E,2,9,1.02,789.8,M,-38.8,M,,*6F
1715240092.453262 GPSRD:$GNGGA,073516.000,4107.6816,N,06939.9587,E,2,9,1.02,790.1,M,-38.8,M,,*61
1715240094.663445 GPSRD:$GNGGA,073518.000,4107.6817,N,06939.9584,E,2,9,1.02,790.0,M,-38.8,M,,*6C
1715240096.874011 GPSRD:$GNGGA,073520.000,4107.6815,N,06939.9585,E,2,9,1.02,789.8,M,-38.8,M,,*64
1715240099.084087 GPSRD:$GNGGA,073522.000,4107.6812,N,06939.9594,E,2,9,1.02,789.4,M,-38.8,M,,*6D
1715240101.293607 GPSRD:$GNGGA,073525.000,4107.6806,N,06939.9610,E,2,9,1.02,788.9,M,-38.8,M,,*6C
1715240103.505245 GPSRD:$GNGGA,073527.000,4107.6804,N,06939.9620,E,2,9,1.02,788.6,M,-38.8,M,,*60
1715240105.715938 GPSRD:$GNGGA,073529.000,4107.6800,N,06939.9629,E,2,9,1.02,788.3,M,-38.8,M,,*66
1715240107.925909 GPSRD:$GNGGA,073531.000,4107.6800,N,06939.9640,E,2,9,1.02,788.0,M,-38.8,M,,*63
1715240110.136343 GPSRD:$GNGGA,073534.000,4107.6794,N,06939.9653,E,2,9,1.02,787.6,M,-38.8,M,,*6F
1715240112.346136 GPSRD:$GNGGA,073536.000,4107.6794,N,06939.9658,E,2,9,1.02,787.4,M,-38.8,M,,*64
1715240114.557307 GPSRD:$GNGGA,073538.000,4107.6792,N,06939.9668,E,2,9,1.02,787.1,M,-38.8,M,,*6A
1715240116.768587 GPSRD:$GNGGA,073540.000,4107.6797,N,06939.9674,E,2,9,1.02,787.1,M,-38.8,M,,*6D
1715240118.979678 GPSRD:$GNGGA,073542.000,4107.6802,N,06939.9680,E,2,9,1.02,787.0,M,-38.8,M,,*66
1715240121.188875 GPSRD:$GNGGA,073545.000,4107.6809,N,06939.9694,E,2,9,1.02,787.0,M,-38.8,M,,*6F
1715240123.400372 GPSRD:$GNGGA,073547.000,4107.6813,N,06939.9701,E,2,9,1.02,787.0,M,-38.8,M,,*6B
1715240125.611468 GPSRD:$GNGGA,073549.000,4107.6815,N,06939.9705,E,2,9,1.02,787.1,M,-38.8,M,,*66
1715240127.822229 GPSRD:$GNGGA,073551.000,4107.6814,N,06939.9706,E,2,9,1.02,787.0,M,-38.8,M,,*6C
1715240130.032482 GPSRD:$GNGGA,073553.000,4107.6815,N,06939.9708,E,2,9,1.05,786.9,M,-38.8,M,,*6E
1715240132.242288 GPSRD:$GNGGA,073556.000,4107.6816,N,06939.9719,E,2,9,1.02,786.7,M,-38.8,M,,*61
1715240134.454915 GPSRD:$GNGGA,073558.000,4107.6820,N,06939.9731,E,2,9,1.02,786.7,M,-38.8,M,,*60
1715240136.666317 GPSRD:$GNGGA,073600.000,4107.6824,N,06939.9736,E,2,9,1.02,786.6,M,-38.8,M,,*6C
1715240138.875184 GPSRD:$GNGGA,073602.000,4107.6828,N,06939.9747,E,2,10,0.96,786.4,M,-38.8,M,,*52
1715240141.086522 GPSRD:$GNGGA,073604.000,4107.6834,N,06939.9753,E,2,10,0.96,786.5,M,-38.8,M,,*5D
1715240143.298784 GPSRD:$GNGGA,073607.000,4107.6844,N,06939.9765,E,2,10,0.96,786.6,M,-38.8,M,,*5F
1715240145.508971 GPSRD:$GNGGA,073609.000,4107.6847,N,06939.9776,E,2,10,0.96,786.6,M,-38.8,M,,*50
1715240147.719375 GPSRD:$GNGGA,073611.000,4107.6852,N,06939.9786,E,2,10,0.96,786.5,M,-38.8,M,,*51
1715240149.927196 GPSRD:$GNGGA,073613.000,4107.6856,N,06939.9799,E,2,10,0.97,786.4,M,-38.8,M,,*59
1715240152.136911 GPSRD:$GNGGA,073616.000,4107.6862,N,06939.9821,E,2,10,0.97,786.1,M,-38.8,M,,*52
1715240154.348822 GPSRD:$GNGGA,073618.000,4107.6864,N,06939.9836,E,2,10,0.97,785.8,M,-38.8,M,,*56
1715240156.558668 GPSRD:$GNGGA,073620.000,4107.6865,N,06939.9852,E,2,10,0.97,785.5,M,-38.8,M,,*53
1715240158.768486 GPSRD:$GNGGA,073622.000,4107.6865,N,06939.9863,E,2,10,0.97,785.1,M,-38.8,M,,*57
1715240160.977561 GPSRD:$GNGGA,073624.000,4107.6862,N,06939.9873,E,2,10,0.97,784.7,M,-38.8,M,,*50
1715240163.187289 GPSRD:$GNGGA,073627.000,4107.6856,N,06939.9891,E,2,10,0.97,784.3,M,-38.8,M,,*5C
1715240165.39738 GPSRD:$GNGGA,073629.000,4107.6855,N,06939.9902,E,2,10,0.97,784.4,M,-38.8,M,,*5D
1715240167.610526 GPSRD:$GNGGA,073631.000,4107.6855,N,06939.9914,E,2,10,0.97,784.4,M,-38.8,M,,*53
1715240169.821726 GPSRD:$GNGGA,073633.000,4107.6852,N,06939.9926,E,2,10,0.97,784.4,M,-38.8,M,,*57
1715240172.032943 GPSRD:$GNGGA,073635.000,4107.6850,N,06939.9940,E,2,10,0.97,784.5,M,-38.8,M,,*52
1715240174.243275 GPSRD:$GNGGA,073638.000,4107.6846,N,06939.9958,E,2,10,0.97,784.3,M,-38.8,M,,*57
1715240176.455645 GPSRD:$GNGGA,073640.000,4107.6840,N,06939.9962,E,2,10,0.97,784.5,M,-38.8,M,,*51
1715240178.666117 GPSRD:$GNGGA,073642.000,4107.6839,N,06939.9951,E,2,10,0.97,785.0,M,-38.8,M,,*59
1715240180.877817 GPSRD:$GNGGA,073644.000,4107.6839,N,06939.9934,E,2,10,0.97,785.4,M,-38.8,M,,*58
1715240183.087181 GPSRD:$GNGGA,073646.000,4107.6836,N,06939.9919,E,2,10,0.97,785.6,M,-38.8,M,,*58
1715240185.299943 GPSRD:$GNGGA,073649.000,4107.6828,N,06939.9893,E,2,10,0.97,786.0,M,-38.8,M,,*5E
1715240187.51022 GPSRD:$GNGGA,073651.000,4107.6822,N,06939.9879,E,2,10,0.97,786.2,M,-38.8,M,,*5B
1715240189.722644 GPSRD:$GNGGA,073653.000,4107.6824,N,06939.9862,E,2,10,0.97,786.4,M,-38.8,M,,*53
1715240191.934428 GPSRD:$GNGGA,073655.000,4107.6825,N,06939.9850,E,2,10,0.97,786.5,M,-38.8,M,,*54
1715240194.147154 GPSRD:$GNGGA,073657.000,4107.6823,N,06939.9832,E,2,10,0.97,786.5,M,-38.8,M,,*54
1715240196.361867 GPSRD:$GNGGA,073700.000,4107.6814,N,06939.9812,E,2,10,0.97,786.5,M,-38.8,M,,*51
1715240198.575033 GPSRD:$GNGGA,073702.000,4107.6807,N,06939.9797,E,2,10,0.97,786.4,M,-38.8,M,,*52
1715240200.788567 GPSRD:$GNGGA,073704.000,4107.6797,N,06939.9788,E,2,10,0.97,786.3,M,-38.8,M,,*5B
1715240202.998452 GPSRD:$GNGGA,073706.000,4107.6789,N,06939.9779,E,2,10,0.97,786.3,M,-38.8,M,,*58
1715240205.20924 GPSRD:$GNGGA,073709.000,4107.6779,N,06939.9764,E,2,10,0.97,786.7,M,-38.8,M,,*50
1715240207.42172 GPSRD:$GNGGA,073711.000,4107.6774,N,06939.9751,E,2,10,0.97,786.9,M,-38.8,M,,*5C
1715240209.632286 GPSRD:$GNGGA,073713.000,4107.6768,N,06939.9738,E,2,10,0.97,787.1,M,-38.8,M,,*55
1715240211.844554 GPSRD:$GNGGA,073715.000,4107.6765,N,06939.9726,E,2,11,0.80,787.2,M,-38.8,M,,*55
1715240214.057135 GPSRD:$GNGGA,073717.000,4107.6761,N,06939.9715,E,2,11,0.80,787.4,M,-38.8,M,,*55
1715240216.267703 GPSRD:$GNGGA,073720.000,4107.6748,N,06939.9705,E,2,11,0.80,787.7,M,-38.8,M,,*58
1715240218.478746 GPSRD:$GNGGA,073722.000,4107.6739,N,06939.9698,E,2,11,0.80,787.7,M,-38.8,M,,*59
1715240220.689713 GPSRD:$GNGGA,073724.000,4107.6731,N,06939.9689,E,2,11,0.80,787.8,M,-38.8,M,,*58
1715240222.903016 GPSRD:$GNGGA,073726.000,4107.6722,N,06939.9685,E,2,11,0.80,787.9,M,-38.8,M,,*55
1715240225.11266 GPSRD:$GNGGA,073728.000,4107.6713,N,06939.9675,E,2,11,0.80,787.9,M,-38.8,M,,*56
1715240227.326799 GPSRD:$GNGGA,073731.000,4107.6710,N,06939.9653,E,2,11,0.80,788.1,M,-38.8,M,,*5E
1715240229.539051 GPSRD:$GNGGA,073733.000,4107.6705,N,06939.9638,E,2,11,0.80,787.9,M,-38.8,M,,*52
1715240231.752873 GPSRD:$GNGGA,073735.000,4107.6699,N,06939.9624,E,2,11,0.80,787.4,M,-38.8,M,,*50
1715240233.96517 GPSRD:$GNGGA,073737.000,4107.6689,N,06939.9612,E,2,11,0.80,787.1,M,-38.8,M,,*53
1715240236.175514 GPSRD:$GNGGA,073739.000,4107.6685,N,06939.9597,E,2,11,0.80,787.0,M,-38.8,M,,*5E
1715240238.386427 GPSRD:$GNGGA,073742.000,4107.6674,N,06939.9582,E,2,11,0.80,787.0,M,-38.8,M,,*58
1715240240.600906 GPSRD:$GNGGA,073744.000,4107.6668,N,06939.9574,E,2,11,0.80,786.9,M,-38.8,M,,*52
1715240242.811184 GPSRD:$GNGGA,073746.000,4107.6662,N,06939.9559,E,2,11,0.80,787.0,M,-38.8,M,,*5D
1715240245.023325 GPSRD:$GNGGA,073748.000,4107.6658,N,06939.9544,E,2,11,0.80,787.0,M,-38.8,M,,*56
1715240247.234304 GPSRD:$GNGGA,073751.000,4107.6651,N,06939.9522,E,2,11,0.80,786.9,M,-38.8,M,,*5F
1715240249.445363 GPSRD:$GNGGA,073753.000,4107.6648,N,06939.9511,E,2,11,0.80,786.8,M,-38.8,M,,*54
1715240251.656195 GPSRD:$GNGGA,073755.000,4107.6639,N,06939.9503,E,2,11,0.80,786.5,M,-38.8,M,,*5A
1715240253.869747 GPSRD:$GNGGA,073757.000,4107.6631,N,06939.9496,E,2,11,0.80,786.2,M,-38.8,M,,*5A
1715240256.079654 GPSRD:$GNGGA,073759.000,4107.6623,N,06939.9490,E,2,11,0.80,786.0,M,-38.8,M,,*53
1715240258.290593 GPSRD:$GNGGA,073802.000,4107.6611,N,06939.9477,E,2,11,0.80,785.7,M,-38.8,M,,*5E
1715240260.501529 GPSRD:$GNGGA,073804.000,4107.6601,N,06939.9470,E,2,12,0.78,785.7,M,-38.8,M,,*5A
1715240262.712268 GPSRD:$GNGGA,073806.000,4107.6591,N,06939.9462,E,2,12,0.78,785.5,M,-38.8,M,,*53
1715240264.924971 GPSRD:$GNGGA,073808.000,4107.6583,N,06939.9452,E,2,12,0.78,785.4,M,-38.8,M,,*5C
1715240267.135433 GPSRD:$GNGGA,073810.000,4107.6573,N,06939.9445,E,2,12,0.78,785.2,M,-38.8,M,,*5A
1715240269.346717 GPSRD:$GNGGA,073813.000,4107.6567,N,06939.9427,E,2,12,0.78,785.1,M,-38.8,M,,*5B
1715240271.560838 GPSRD:$GNGGA,073815.000,4107.6563,N,06939.9414,E,2,12,0.78,785.1,M,-38.8,M,,*59
1715240273.774741 GPSRD:$GNGGA,073817.000,4107.6555,N,06939.9408,E,2,12,0.78,785.0,M,-38.8,M,,*52
1715240275.987207 GPSRD:$GNGGA,073819.000,4107.6548,N,06939.9406,E,2,12,0.78,784.8,M,-38.8,M,,*57
1715240278.199447 GPSRD:$GNGGA,073821.000,4107.6543,N,06939.9398,E,2,12,0.78,784.4,M,-38.8,M,,*5B
1715240280.412101 GPSRD:$GNGGA,073824.000,4107.6541,N,06939.9384,E,2,12,0.78,783.8,M,-38.8,M,,*5A
1715240282.625036 GPSRD:$GNGGA,073826.000,4107.6542,N,06939.9373,E,2,12,0.78,783.5,M,-38.8,M,,*5E
1715240284.837283 GPSRD:$GNGGA,073828.000,4107.6536,N,06939.9363,E,2,12,0.78,783.2,M,-38.8,M,,*55
1715240287.049924 GPSRD:$GNGGA,073830.000,4107.6532,N,06939.9347,E,2,12,0.78,783.0,M,-38.8,M,,*5C
1715240289.264561 GPSRD:$GNGGA,073832.000,4107.6527,N,06939.9336,E,2,12,0.78,782.9,M,-38.8,M,,*54
1715240291.47572 GPSRD:$GNGGA,073835.000,4107.6528,N,06939.9318,E,2,12,0.78,782.5,M,-38.8,M,,*5C
1715240293.686706 GPSRD:$GNGGA,073837.000,4107.6524,N,06939.9306,E,2,12,0.78,782.4,M,-38.8,M,,*5C
1715240295.899983 GPSRD:$GNGGA,073839.000,4107.6520,N,06939.9293,E,2,12,0.78,782.3,M,-38.8,M,,*5C
1715240298.10987 GPSRD:$GNGGA,073841.000,4107.6514,N,06939.9279,E,2,12,0.78,782.3,M,-38.8,M,,*50
1715240300.323371 GPSRD:$GNGGA,073844.000,4107.6510,N,06939.9261,E,2,12,0.78,782.3,M,-38.8,M,,*58
1715240302.534613 GPSRD:$GNGGA,073846.000,4107.6506,N,06939.9248,E,2,14,0.69,782.5,M,-38.8,M,,*56
1715240304.748604 GPSRD:$GNGGA,073848.000,4107.6501,N,06939.9236,E,2,14,0.69,782.6,M,-38.8,M,,*55
1715240306.959638 GPSRD:$GNGGA,073850.000,4107.6495,N,06939.9222,E,2,14,0.69,782.7,M,-38.8,M,,*54
1715240309.172847 GPSRD:$GNGGA,073852.000,4107.6486,N,06939.9210,E,2,14,0.69,782.8,M,-38.8,M,,*5A
1715240311.387028 GPSRD:$GNGGA,073855.000,4107.6475,N,06939.9196,E,2,14,0.69,783.0,M,-38.8,M,,*55
1715240313.601552 GPSRD:$GNGGA,073857.000,4107.6469,N,06939.9189,E,2,14,0.69,783.0,M,-38.8,M,,*54
1715240315.81221 GPSRD:$GNGGA,073859.000,4107.6463,N,06939.9181,E,2,14,0.69,783.0,M,-38.8,M,,*58
1715240318.026018 GPSRD:$GNGGA,073901.000,4107.6455,N,06939.9173,E,2,15,0.68,783.1,M,-38.8,M,,*5D
1715240320.236858 GPSRD:$GNGGA,073903.000,4107.6447,N,06939.9161,E,2,15,0.68,783.1,M,-38.8,M,,*5F
1715240322.449202 GPSRD:$GNGGA,073906.000,4107.6437,N,06939.9149,E,2,15,0.68,783.0,M,-38.8,M,,*56
1715240324.660277 GPSRD:$GNGGA,073908.000,4107.6430,N,06939.9135,E,2,15,0.68,782.8,M,-38.8,M,,*5D
1715240326.873921 GPSRD:$GNGGA,073910.000,4107.6423,N,06939.9123,E,2,15,0.68,782.6,M,-38.8,M,,*5F
1715240329.08481 GPSRD:$GNGGA,073912.000,4107.6418,N,06939.9114,E,2,15,0.68,782.3,M,-38.8,M,,*54
1715240331.297589 GPSRD:$GNGGA,073914.000,4107.6412,N,06939.9108,E,2,15,0.68,781.6,M,-38.8,M,,*53
1715240333.512064 GPSRD:$GNGGA,073917.000,4107.6401,N,06939.9107,E,2,15,0.68,781.2,M,-38.8,M,,*59
1715240335.723538 GPSRD:$GNGGA,073919.000,4107.6393,N,06939.9101,E,2,15,0.68,781.2,M,-38.8,M,,*5D
1715240337.937738 GPSRD:$GNGGA,073921.000,4107.6386,N,06939.9094,E,2,15,0.68,781.0,M,-38.8,M,,*5D
1715240340.148103 GPSRD:$GNGGA,073923.000,4107.6378,N,06939.9087,E,2,15,0.68,780.9,M,-38.8,M,,*54
1715240342.358878 GPSRD:$GNGGA,073925.000,4107.6372,N,06939.9077,E,2,15,0.68,780.9,M,-38.8,M,,*57
1715240344.573833 GPSRD:$GNGGA,073928.000,4107.6362,N,06939.9070,E,2,15,0.68,780.6,M,-38.8,M,,*53
1715240346.785803 GPSRD:$GNGGA,073930.000,4107.6355,N,06939.9063,E,2,15,0.68,780.4,M,-38.8,M,,*5E
1715240349.000067 GPSRD:$GNGGA,073932.000,4107.6347,N,06939.9056,E,2,15,0.68,780.2,M,-38.8,M,,*5F
1715240351.210602 GPSRD:$GNGGA,073934.000,4107.6340,N,06939.9050,E,2,15,0.68,780.1,M,-38.8,M,,*5B
1715240353.423941 GPSRD:$GNGGA,073937.000,4107.6329,N,06939.9043,E,2,15,0.68,780.2,M,-38.8,M,,*56
1715240355.635785 GPSRD:$GNGGA,073939.000,4107.6322,N,06939.9036,E,2,15,0.68,780.1,M,-38.8,M,,*52
1715240357.847428 GPSRD:$GNGGA,073941.000,4107.6315,N,06939.9031,E,2,15,0.68,780.2,M,-38.8,M,,*5D
1715240360.061758 GPSRD:$GNGGA,073943.000,4107.6306,N,06939.9030,E,2,15,0.68,780.3,M,-38.8,M,,*5D
1715240362.272288 GPSRD:$GNGGA,073945.000,4107.6298,N,06939.9031,E,2,16,0.66,780.5,M,-38.8,M,,*57
1715240364.486678 GPSRD:$GNGGA,073948.000,4107.6286,N,06939.9035,E,2,16,0.66,780.9,M,-38.8,M,,*5D
1715240366.698026 GPSRD:$GNGGA,073950.000,4107.6276,N,06939.9038,E,2,16,0.66,781.2,M,-38.8,M,,*5C
1715240368.913136 GPSRD:$GNGGA,073952.000,4107.6268,N,06939.9040,E,2,16,0.66,781.5,M,-38.8,M,,*59
1715240371.127127 GPSRD:$GNGGA,073954.000,4107.6257,N,06939.9041,E,2,16,0.66,781.7,M,-38.8,M,,*50
1715240373.338273 GPSRD:$GNGGA,073956.000,4107.6246,N,06939.9042,E,2,16,0.66,782.0,M,-38.8,M,,*55
1715240375.55045 GPSRD:$GNGGA,073959.000,4107.6234,N,06939.9033,E,2,16,0.66,782.3,M,-38.8,M,,*5A
1715240377.761787 GPSRD:$GNGGA,074001.000,4107.6225,N,06939.9031,E,2,16,0.66,782.5,M,-38.8,M,,*5D
1715240379.973871 GPSRD:$GNGGA,074003.000,4107.6220,N,06939.9034,E,2,16,0.66,782.4,M,-38.8,M,,*5E
1715240382.187675 GPSRD:$GNGGA,074005.000,4107.6216,N,06939.9039,E,2,16,0.66,782.3,M,-38.8,M,,*57
1715240384.401365 GPSRD:$GNGGA,074007.000,4107.6208,N,06939.9043,E,2,16,0.66,782.3,M,-38.8,M,,*57
1715240386.614097 GPSRD:$GNGGA,074010.000,4107.6195,N,06939.9045,E,2,16,0.66,782.5,M,-38.8,M,,*56
1715240388.826218 GPSRD:$GNGGA,074012.000,4107.6187,N,06939.9050,E,2,16,0.66,782.6,M,-38.8,M,,*50
1715240391.039372 GPSRD:$GNGGA,074014.000,4107.6179,N,06939.9053,E,2,16,0.66,782.9,M,-38.8,M,,*5B
1715240393.253123 GPSRD:$GNGGA,074016.000,4107.6169,N,06939.9060,E,2,16,0.66,783.2,M,-38.8,M,,*52
1715240395.465161 GPSRD:$GNGGA,074019.000,4107.6158,N,06939.9069,E,2,16,0.66,783.3,M,-38.8,M,,*57
1715240397.680125 GPSRD:$GNGGA,074021.000,4107.6157,N,06939.9072,E,2,16,0.66,783.5,M,-38.8,M,,*5F
1715240399.893932 GPSRD:$GNGGA,074023.000,4107.6156,N,06939.9073,E,2,16,0.66,783.6,M,-38.8,M,,*5E
1715240402.107269 GPSRD:$GNGGA,074025.000,4107.6150,N,06939.9081,E,2,16,0.66,783.7,M,-38.8,M,,*52
1715240404.317961 GPSRD:$GNGGA,074027.000,4107.6142,N,06939.9085,E,2,16,0.66,784.1,M,-38.8,M,,*56
1715240406.531349 GPSRD:$GNGGA,074030.000,4107.6128,N,06939.9099,E,2,16,0.66,784.2,M,-38.8,M,,*52
1715240408.745597 GPSRD:$GNGGA,074032.000,4107.6120,N,06939.9109,E,2,16,0.66,783.9,M,-38.8,M,,*5C
1715240410.956842 GPSRD:$GNGGA,074034.000,4107.6110,N,06939.9120,E,2,16,0.66,783.6,M,-38.8,M,,*5D
1715240413.170914 GPSRD:$GNGGA,074036.000,4107.6098,N,06939.9122,E,2,16,0.66,783.2,M,-38.8,M,,*58
1715240415.384221 GPSRD:$GNGGA,074038.000,4107.6088,N,06939.9121,E,2,16,0.66,782.7,M,-38.8,M,,*50
1715240417.595995 GPSRD:$GNGGA,074041.000,4107.6074,N,06939.9117,E,2,16,0.66,782.2,M,-38.8,M,,*5D
1715240419.808815 GPSRD:$GNGGA,074043.000,4107.6062,N,06939.9115,E,2,16,0.66,781.9,M,-38.8,M,,*52
1715240422.023759 GPSRD:$GNGGA,074045.000,4107.6051,N,06939.9117,E,1,16,0.66,781.5,M,-38.8,M,,*59
1715240424.237105 GPSRD:$GNGGA,074047.000,4107.6043,N,06939.9123,E,1,16,0.66,781.3,M,-38.8,M,,*59
1715240426.451807 GPSRD:$GNGGA,074049.000,4107.6035,N,06939.9131,E,1,16,0.66,781.1,M,-38.8,M,,*57
1715240428.663241 GPSRD:$GNGGA,074052.000,4107.6019,N,06939.9133,E,1,16,0.66,780.8,M,-38.8,M,,*59
1715240430.878282 GPSRD:$GNGGA,074054.000,4107.6009,N,06939.9127,E,1,16,0.66,780.7,M,-38.8,M,,*54
1715240433.089738 GPSRD:$GNGGA,074056.000,4107.6001,N,06939.9127,E,1,16,0.66,780.4,M,-38.8,M,,*5D
1715240435.304447 GPSRD:$GNGGA,074058.000,4107.5994,N,06939.9128,E,1,16,0.66,780.2,M,-38.8,M,,*5C
1715240437.520287 GPSRD:$GNGGA,074101.000,4107.5985,N,06939.9146,E,1,16,0.66,780.3,M,-38.8,M,,*58
1715240439.732992 GPSRD:$GNGGA,074103.000,4107.5979,N,06939.9154,E,1,16,0.66,780.6,M,-38.8,M,,*5F
1715240441.946501 GPSRD:$GNGGA,074105.000,4107.5973,N,06939.9162,E,1,16,0.66,780.3,M,-38.8,M,,*53
1715240444.161059 GPSRD:$GNGGA,074107.000,4107.5965,N,06939.9166,E,1,16,0.66,780.2,M,-38.8,M,,*53
1715240446.375761 GPSRD:$GNGGA,074109.000,4107.5955,N,06939.9174,E,1,16,0.66,780.0,M,-38.8,M,,*5F
1715240448.590457 GPSRD:$GNGGA,074112.000,4107.5943,N,06939.9188,E,1,16,0.66,780.0,M,-38.8,M,,*51
1715240450.805236 GPSRD:$GNGGA,074114.000,4107.5932,N,06939.9195,E,1,16,0.66,780.0,M,-38.8,M,,*5D
1715240453.020324 GPSRD:$GNGGA,074116.000,4107.5923,N,06939.9197,E,1,16,0.66,779.9,M,-38.8,M,,*52
1715240455.231581 GPSRD:$GNGGA,074118.000,4107.5912,N,06939.9201,E,1,16,0.66,780.0,M,-38.8,M,,*5D
1715240457.446939 GPSRD:$GNGGA,074120.000,4107.5905,N,06939.9207,E,1,16,0.66,780.2,M,-38.8,M,,*54
1715240459.658753 GPSRD:$GNGGA,074123.000,4107.5894,N,06939.9210,E,1,16,0.66,780.7,M,-38.8,M,,*5D
1715240461.87424 GPSRD:$GNGGA,074125.000,4107.5885,N,06939.9210,E,1,16,0.66,780.8,M,-38.8,M,,*54
1715240464.08583 GPSRD:$GNGGA,074127.000,4107.5872,N,06939.9207,E,1,16,0.66,780.9,M,-38.8,M,,*59
1715240466.297262 GPSRD:$GNGGA,074129.000,4107.5862,N,06939.9205,E,1,16,0.66,781.2,M,-38.8,M,,*5E
1715240468.512028 GPSRD:$GNGGA,074132.000,4107.5846,N,06939.9208,E,1,16,0.66,781.9,M,-38.8,M,,*54
1715240470.726137 GPSRD:$GNGGA,074134.000,4107.5838,N,06939.9207,E,1,16,0.66,782.2,M,-38.8,M,,*5C
1715240472.938758 GPSRD:$GNGGA,074136.000,4107.5827,N,06939.9202,E,1,16,0.66,782.5,M,-38.8,M,,*52
1715240475.151476 GPSRD:$GNGGA,074138.000,4107.5819,N,06939.9202,E,1,16,0.66,782.8,M,-38.8,M,,*5C
1715240477.362654 GPSRD:$GNGGA,074140.000,4107.5810,N,06939.9203,E,1,16,0.66,783.2,M,-38.8,M,,*50
1715240479.576376 GPSRD:$GNGGA,074143.000,4107.5793,N,06939.9197,E,1,16,0.66,783.7,M,-38.8,M,,*5C
1715240481.788318 GPSRD:$GNGGA,074145.000,4107.5781,N,06939.9194,E,1,16,0.66,784.0,M,-38.8,M,,*5A
1715240484.001603 GPSRD:$GNGGA,074147.000,4107.5775,N,06939.9198,E,1,16,0.66,784.6,M,-38.8,M,,*59
1715240486.216869 GPSRD:$GNGGA,074149.000,4107.5771,N,06939.9206,E,1,16,0.66,784.9,M,-38.8,M,,*58
1715240488.429973 GPSRD:$GNGGA,074151.000,4107.5764,N,06939.9216,E,1,16,0.66,784.9,M,-38.8,M,,*54
1715240490.643319 GPSRD:$GNGGA,074154.000,4107.5757,N,06939.9230,E,1,16,0.66,785.0,M,-38.8,M,,*5D
1715240492.855157 GPSRD:$GNGGA,074156.000,4107.5748,N,06939.9230,E,1,16,0.66,785.1,M,-38.8,M,,*50
1715240495.069571 GPSRD:$GNGGA,074158.000,4107.5740,N,06939.9233,E,1,16,0.66,785.6,M,-38.8,M,,*52
1715240497.284037 GPSRD:$GNGGA,074200.000,4107.5733,N,06939.9237,E,1,16,0.66,785.9,M,-38.8,M,,*53
1715240499.49682 GPSRD:$GNGGA,074203.000,4107.5720,N,06939.9240,E,1,17,0.65,786.2,M,-38.8,M,,*58
1715240501.711729 GPSRD:$GNGGA,074205.000,4107.5711,N,06939.9243,E,1,17,0.65,786.6,M,-38.8,M,,*5B
1715240503.924013 GPSRD:$GNGGA,074207.000,4107.5705,N,06939.9246,E,1,17,0.65,786.8,M,-38.8,M,,*57
1715240506.13863 GPSRD:$GNGGA,074209.000,4107.5698,N,06939.9251,E,1,17,0.65,787.2,M,-38.8,M,,*51
1715240508.34991 GPSRD:$GNGGA,074211.000,4107.5691,N,06939.9254,E,1,17,0.65,787.4,M,-38.8,M,,*52
1715240510.565199 GPSRD:$GNGGA,074214.000,4107.5679,N,06939.9254,E,1,17,0.65,787.4,M,-38.8,M,,*51
1715240512.776985 GPSRD:$GNGGA,074216.000,4107.5676,N,06939.9256,E,1,17,0.65,787.8,M,-38.8,M,,*52
1715240514.989562 GPSRD:$GNGGA,074218.000,4107.5667,N,06939.9259,E,1,17,0.65,787.9,M,-38.8,M,,*52
1715240517.201184 GPSRD:$GNGGA,074220.000,4107.5659,N,06939.9265,E,1,17,0.65,788.1,M,-38.8,M,,*5C
1715240519.415631 GPSRD:$GNGGA,074222.000,4107.5649,N,06939.9270,E,1,17,0.65,788.4,M,-38.8,M,,*5E
1715240521.628199 GPSRD:$GNGGA,074225.000,4107.5642,N,06939.9278,E,1,17,0.65,788.6,M,-38.8,M,,*58
1715240523.840886 GPSRD:$GNGGA,074227.000,4107.5633,N,06939.9287,E,1,17,0.65,788.8,M,-38.8,M,,*52
1715240526.055612 GPSRD:$GNGGA,074229.000,4107.5626,N,06939.9291,E,1,17,0.65,789.0,M,-38.8,M,,*56
1715240528.270251 GPSRD:$GNGGA,074231.000,4107.5615,N,06939.9293,E,1,17,0.65,789.2,M,-38.8,M,,*5F
1715240530.4842 GPSRD:$GNGGA,074233.000,4107.5605,N,06939.9294,E,1,17,0.65,789.5,M,-38.8,M,,*5C
1715240532.696609 GPSRD:$GNGGA,074236.000,4107.5589,N,06939.9295,E,1,17,0.65,789.9,M,-38.8,M,,*53
1715240534.90805 GPSRD:$GNGGA,074238.000,4107.5582,N,06939.9301,E,1,17,0.65,790.0,M,-38.8,M,,*5B
1715240537.120353 GPSRD:$GNGGA,074240.000,4107.5572,N,06939.9304,E,1,17,0.65,790.1,M,-38.8,M,,*5F
1715240539.33502 GPSRD:$GNGGA,074242.000,4107.5563,N,06939.9299,E,1,17,0.65,790.4,M,-38.8,M,,*5D
1715240541.54719 GPSRD:$GNGGA,074245.000,4107.5550,N,06939.9289,E,1,17,0.65,790.4,M,-38.8,M,,*5B
1715240543.761556 GPSRD:$GNGGA,074247.000,4107.5543,N,06939.9281,E,1,17,0.65,790.4,M,-38.8,M,,*53
1715240545.973697 GPSRD:$GNGGA,074249.000,4107.5534,N,06939.9274,E,1,17,0.65,790.5,M,-38.8,M,,*56
1715240548.186462 GPSRD:$GNGGA,074251.000,4107.5528,N,06939.9266,E,1,17,0.65,790.7,M,-38.8,M,,*53
1715240550.397763 GPSRD:$GNGGA,074253.000,4107.5521,N,06939.9256,E,1,17,0.65,790.8,M,-38.8,M,,*54
1715240552.610482 GPSRD:$GNGGA,074256.000,4107.5509,N,06939.9252,E,1,17,0.65,790.5,M,-38.8,M,,*52
1715240554.826067 GPSRD:$GNGGA,074258.000,4107.5500,N,06939.9252,E,1,17,0.65,789.9,M,-38.8,M,,*51
1715240557.038682 GPSRD:$GNGGA,074300.000,4107.5490,N,06939.9251,E,1,17,0.65,789.6,M,-38.8,M,,*59
1715240559.253172 GPSRD:$GNGGA,074302.000,4107.5481,N,06939.9244,E,1,17,0.65,789.4,M,-38.8,M,,*5D
1715240561.464813 GPSRD:$GNGGA,074304.000,4107.5472,N,06939.9241,E,1,17,0.65,789.3,M,-38.8,M,,*55
1715240563.677858 GPSRD:$GNGGA,074307.000,4107.5466,N,06939.9239,E,1,17,0.65,789.0,M,-38.8,M,,*5F
1715240565.891764 GPSRD:$GNGGA,074309.000,4107.5466,N,06939.9240,E,1,17,0.65,788.8,M,-38.8,M,,*56
1715240568.103826 GPSRD:$GNGGA,074311.000,4107.5462,N,06939.9241,E,1,17,0.65,788.7,M,-38.8,M,,*55
1715240570.317291 GPSRD:$GNGGA,074313.000,4107.5454,N,06939.9239,E,1,17,0.65,788.7,M,-38.8,M,,*5D
1715240572.528927 GPSRD:$GNGGA,074316.000,4107.5443,N,06939.9233,E,1,17,0.65,788.6,M,-38.8,M,,*55
1715240574.74181 GPSRD:$GNGGA,074318.000,4107.5435,N,06939.9229,E,1,17,0.65,788.6,M,-38.8,M,,*51
1715240576.955475 GPSRD:$GNGGA,074320.000,4107.5425,N,06939.9229,E,1,17,0.65,788.6,M,-38.8,M,,*5B
1715240579.167452 GPSRD:$GNGGA,074322.000,4107.5416,N,06939.9228,E,1,17,0.65,788.3,M,-38.8,M,,*5D
1715240581.381752 GPSRD:$GNGGA,074324.000,4107.5407,N,06939.9231,E,1,17,0.65,788.1,M,-38.8,M,,*51
1715240583.595352 GPSRD:$GNGGA,074327.000,4107.5391,N,06939.9228,E,1,17,0.65,787.8,M,-38.8,M,,*54
1715240585.807778 GPSRD:$GNGGA,074329.000,4107.5385,N,06939.9226,E,1,17,0.65,787.9,M,-38.8,M,,*50
1715240588.020109 GPSRD:$GNGGA,074331.000,4107.5377,N,06939.9224,E,1,17,0.65,787.8,M,-38.8,M,,*57
1715240590.233502 GPSRD:$GNGGA,074333.000,4107.5374,N,06939.9230,E,1,17,0.65,788.4,M,-38.8,M,,*50
1715240592.449531 GPSRD:$GNGGA,074336.000,4107.5364,N,06939.9227,E,1,17,0.65,788.3,M,-38.8,M,,*55
1715240594.661239 GPSRD:$GNGGA,074338.000,4107.5364,N,06939.9223,E,1,17,0.65,788.3,M,-38.8,M,,*5F
1715240596.874491 GPSRD:$GNGGA,074340.000,4107.5369,N,06939.9231,E,1,17,0.65,788.7,M,-38.8,M,,*5A
1715240599.086446 GPSRD:$GNGGA,074342.000,4107.5364,N,06939.9234,E,1,17,0.65,788.8,M,-38.8,M,,*5F
1715240601.297967 GPSRD:$GNGGA,074344.000,4107.5359,N,06939.9238,E,1,17,0.65,788.8,M,-38.8,M,,*5B
1715240603.510286 GPSRD:$GNGGA,074347.000,4107.5348,N,06939.9237,E,1,17,0.65,788.6,M,-38.8,M,,*59
1715240605.722363 GPSRD:$GNGGA,074349.000,4107.5345,N,06939.9235,E,1,17,0.65,788.7,M,-38.8,M,,*59
1715240607.93631 GPSRD:$GNGGA,074351.000,4107.5343,N,06939.9229,E,1,17,0.65,787.9,M,-38.8,M,,*5A
1715240610.14894 GPSRD:$GNGGA,074353.000,4107.5338,N,06939.9223,E,1,17,0.65,787.6,M,-38.8,M,,*51
1715240612.360642 GPSRD:$GNGGA,074355.000,4107.5332,N,06939.9221,E,1,17,0.65,787.4,M,-38.8,M,,*5D
1715240614.572868 GPSRD:$GNGGA,074358.000,4107.5324,N,06939.9213,E,1,17,0.65,787.4,M,-38.8,M,,*56
1715240616.788178 GPSRD:$GNGGA,074400.000,4107.5316,N,06939.9217,E,1,17,0.65,787.2,M,-38.8,M,,*5F
1715240619.000306 GPSRD:$GNGGA,074402.000,4107.5310,N,06939.9218,E,1,17,0.65,787.1,M,-38.8,M,,*57
1715240621.214941 GPSRD:$GNGGA,074404.000,4107.5306,N,06939.9219,E,1,17,0.65,786.8,M,-38.8,M,,*5F
1715240623.430011 GPSRD:$GNGGA,074407.000,4107.5312,N,06939.9223,E,1,17,0.66,786.3,M,-38.8,M,,*58
1715240625.643058 GPSRD:$GNGGA,074409.000,4107.5318,N,06939.9230,E,1,17,0.65,786.0,M,-38.8,M,,*5E
1715240627.856384 GPSRD:$GNGGA,074411.000,4107.5318,N,06939.9236,E,1,17,0.65,785.7,M,-38.8,M,,*55
1715240630.068729 GPSRD:$GNGGA,074413.000,4107.5317,N,06939.9246,E,1,17,0.65,785.5,M,-38.8,M,,*5D
1715240632.282177 GPSRD:$GNGGA,074415.000,4107.5322,N,06939.9255,E,1,17,0.65,785.5,M,-38.8,M,,*5F
1715240634.495693 GPSRD:$GNGGA,074418.000,4107.5334,N,06939.9255,E,1,17,0.66,785.4,M,-38.8,M,,*57
1715240636.709256 GPSRD:$GNGGA,074420.000,4107.5346,N,06939.9256,E,1,17,0.66,785.4,M,-38.8,M,,*5A
1715240638.921352 GPSRD:$GNGGA,074422.000,4107.5358,N,06939.9258,E,1,17,0.66,785.5,M,-38.8,M,,*58
1715240641.133122 GPSRD:$GNGGA,074424.000,4107.5370,N,06939.9256,E,1,17,0.66,785.4,M,-38.8,M,,*5B
1715240643.344525 GPSRD:$GNGGA,074426.000,4107.5382,N,06939.9257,E,1,17,0.66,785.3,M,-38.8,M,,*52
1715240645.556832 GPSRD:$GNGGA,074429.000,4107.5398,N,06939.9255,E,1,17,0.65,785.4,M,-38.8,M,,*50
1715240647.76924 GPSRD:$GNGGA,074431.000,4107.5409,N,06939.9254,E,1,17,0.66,785.3,M,-38.8,M,,*53
1715240649.980769 GPSRD:$GNGGA,074433.000,4107.5417,N,06939.9253,E,1,17,0.66,785.0,M,-38.8,M,,*5A
1715240652.195776 GPSRD:$GNGGA,074435.000,4107.5428,N,06939.9254,E,1,17,0.66,784.1,M,-38.8,M,,*57
1715240654.407346 GPSRD:$GNGGA,074437.000,4107.5439,N,06939.9250,E,1,17,0.65,783.4,M,-38.8,M,,*50
1715240656.619342 GPSRD:$GNGGA,074440.000,4107.5454,N,06939.9240,E,1,17,0.65,781.9,M,-38.8,M,,*55
1715240658.8306 GPSRD:$GNGGA,074442.000,4107.5465,N,06939.9236,E,1,17,0.65,781.6,M,-38.8,M,,*5B
1715240661.042639 GPSRD:$GNGGA,074444.000,4107.5476,N,06939.9232,E,1,17,0.65,781.3,M,-38.8,M,,*5E
1715240663.25604 GPSRD:$GNGGA,074446.000,4107.5488,N,06939.9224,E,1,17,0.65,781.3,M,-38.8,M,,*5A
1715240665.470853 GPSRD:$GNGGA,074448.000,4107.5497,N,06939.9228,E,1,17,0.65,781.5,M,-38.8,M,,*50
1715240667.683325 GPSRD:$GNGGA,074451.000,4107.5512,N,06939.9232,E,1,17,0.66,782.0,M,-38.8,M,,*5A
1715240669.89546 GPSRD:$GNGGA,074453.000,4107.5521,N,06939.9236,E,1,17,0.65,782.0,M,-38.8,M,,*5F
1715240672.109901 GPSRD:$GNGGA,074455.000,4107.5536,N,06939.9236,E,1,17,0.66,782.2,M,-38.8,M,,*5E
1715240674.324709 GPSRD:$GNGGA,074457.000,4107.5547,N,06939.9238,E,1,17,0.66,782.8,M,-38.8,M,,*5E
1715240676.539046 GPSRD:$GNGGA,074500.000,4107.5567,N,06939.9237,E,1,17,0.66,783.2,M,-38.8,M,,*5B
1715240678.754171 GPSRD:$GNGGA,074502.000,4107.5578,N,06939.9235,E,1,17,0.65,783.3,M,-38.8,M,,*57
1715240680.969189 GPSRD:$GNGGA,074504.000,4107.5590,N,06939.9236,E,1,17,0.66,783.1,M,-38.8,M,,*55
1715240683.183002 GPSRD:$GNGGA,074506.000,4107.5601,N,06939.9241,E,1,17,0.65,783.4,M,-38.8,M,,*5A
1715240685.395059 GPSRD:$GNGGA,074508.000,4107.5611,N,06939.9245,E,1,17,0.65,783.4,M,-38.8,M,,*51
1715240687.610153 GPSRD:$GNGGA,074511.000,4107.5626,N,06939.9241,E,1,17,0.66,783.9,M,-38.8,M,,*57
1715240689.824051 GPSRD:$GNGGA,074513.000,4107.5638,N,06939.9244,E,1,17,0.66,783.4,M,-38.8,M,,*52
1715240692.036719 GPSRD:$GNGGA,074515.000,4107.5652,N,06939.9248,E,1,17,0.66,783.3,M,-38.8,M,,*53
1715240694.247549 GPSRD:$GNGGA,074517.000,4107.5666,N,06939.9250,E,1,17,0.66,783.6,M,-38.8,M,,*5A
1715240696.458783 GPSRD:$GNGGA,074519.000,4107.5681,N,06939.9252,E,1,17,0.66,783.4,M,-38.8,M,,*5D
1715240698.670564 GPSRD:$GNGGA,074522.000,4107.5698,N,06939.9251,E,1,17,0.65,783.7,M,-38.8,M,,*5E
1715240700.885216 GPSRD:$GNGGA,074524.000,4107.5710,N,06939.9251,E,1,17,0.66,783.9,M,-38.8,M,,*54
1715240703.098646 GPSRD:$GNGGA,074526.000,4107.5721,N,06939.9251,E,1,17,0.66,784.0,M,-38.8,M,,*5A
1715240705.309768 GPSRD:$GNGGA,074528.000,4107.5730,N,06939.9252,E,1,17,0.66,783.8,M,-38.8,M,,*58
1715240707.521655 GPSRD:$GNGGA,074531.000,4107.5742,N,06939.9253,E,1,17,0.66,783.5,M,-38.8,M,,*59
1715240709.733862 GPSRD:$GNGGA,074533.000,4107.5750,N,06939.9255,E,1,17,0.66,783.4,M,-38.8,M,,*5F
1715240711.947595 GPSRD:$GNGGA,074535.000,4107.5759,N,06939.9264,E,1,17,0.65,783.8,M,-38.8,M,,*5D
1715240714.161887 GPSRD:$GNGGA,074537.000,4107.5766,N,06939.9275,E,1,17,0.65,784.4,M,-38.8,M,,*58
1715240716.374104 GPSRD:$GNGGA,074539.000,4107.5771,N,06939.9284,E,1,17,0.65,784.8,M,-38.8,M,,*52
1715240718.588935 GPSRD:$GNGGA,074542.000,4107.5779,N,06939.9306,E,1,17,0.65,785.2,M,-38.8,M,,*56
1715240720.801286 GPSRD:$GNGGA,074544.000,4107.5784,N,06939.9318,E,1,17,0.65,785.7,M,-38.8,M,,*58
1715240723.016896 GPSRD:$GNGGA,074546.000,4107.5790,N,06939.9333,E,1,17,0.65,786.4,M,-38.8,M,,*56
1715240725.229019 GPSRD:$GNGGA,074548.000,4107.5797,N,06939.9344,E,1,17,0.65,787.1,M,-38.8,M,,*5B
1715240727.442214 GPSRD:$GNGGA,074551.000,4107.5812,N,06939.9356,E,1,17,0.65,787.7,M,-38.8,M,,*54
1715240729.654529 GPSRD:$GNGGA,074553.000,4107.5822,N,06939.9369,E,1,17,0.65,788.1,M,-38.8,M,,*50
1715240731.867608 GPSRD:$GNGGA,074555.000,4107.5829,N,06939.9380,E,1,17,0.65,788.6,M,-38.8,M,,*5D
1715240734.079167 GPSRD:$GNGGA,074557.000,4107.5837,N,06939.9390,E,1,17,0.65,788.9,M,-38.8,M,,*5E
1715240736.290947 GPSRD:$GNGGA,074559.000,4107.5845,N,06939.9399,E,1,17,0.65,789.5,M,-38.8,M,,*51
1715240738.504545 GPSRD:$GNGGA,074602.000,4107.5852,N,06939.9413,E,1,17,0.65,790.5,M,-38.8,M,,*57
1715240740.717761 GPSRD:$GNGGA,074604.000,4107.5861,N,06939.9422,E,1,17,0.65,791.0,M,-38.8,M,,*57
1715240742.929366 GPSRD:$GNGGA,074606.000,4107.5868,N,06939.9429,E,1,17,0.65,791.4,M,-38.8,M,,*53
1715240745.142906 GPSRD:$GNGGA,074608.000,4107.5875,N,06939.9436,E,1,17,0.65,791.9,M,-38.8,M,,*52
1715240747.353913 GPSRD:$GNGGA,074610.000,4107.5884,N,06939.9445,E,1,17,0.65,792.2,M,-38.8,M,,*59
1715240749.565811 GPSRD:$GNGGA,074613.000,4107.5899,N,06939.9452,E,1,17,0.66,792.6,M,-38.8,M,,*57
1715240751.777925 GPSRD:$GNGGA,074615.000,4107.5913,N,06939.9455,E,1,17,0.66,792.8,M,-38.8,M,,*5B
1715240753.990959 GPSRD:$GNGGA,074617.000,4107.5924,N,06939.9457,E,1,17,0.66,793.0,M,-38.8,M,,*56
1715240756.205148 GPSRD:$GNGGA,074619.000,4107.5937,N,06939.9458,E,1,17,0.66,793.2,M,-38.8,M,,*57
1715240758.416906 GPSRD:$GNGGA,074621.000,4107.5948,N,06939.9456,E,1,17,0.66,793.0,M,-38.8,M,,*58
1715240760.631829 GPSRD:$GNGGA,074624.000,4107.5967,N,06939.9459,E,1,17,0.66,792.5,M,-38.8,M,,*5B
1715240762.844143 GPSRD:$GNGGA,074626.000,4107.5977,N,06939.9452,E,1,17,0.65,791.8,M,-38.8,M,,*5E
1715240765.056316 GPSRD:$GNGGA,074628.000,4107.5986,N,06939.9450,E,1,17,0.66,790.7,M,-38.8,M,,*51
1715240767.27099 GPSRD:$GNGGA,074630.000,4107.5997,N,06939.9448,E,1,17,0.66,789.3,M,-38.8,M,,*5D
1715240769.483131 GPSRD:$GNGGA,074632.000,4107.6007,N,06939.9448,E,1,17,0.66,788.1,M,-38.8,M,,*5F
1715240771.698848 GPSRD:$GNGGA,074635.000,4107.6022,N,06939.9447,E,1,17,0.66,787.1,M,-38.8,M,,*5F
1715240773.911739 GPSRD:$GNGGA,074637.000,4107.6033,N,06939.9444,E,1,17,0.66,786.9,M,-38.8,M,,*57
1715240776.126741 GPSRD:$GNGGA,074639.000,4107.6045,N,06939.9440,E,1,17,0.66,786.4,M,-38.8,M,,*51
1715240778.338943 GPSRD:$GNGGA,074641.000,4107.6056,N,06939.9441,E,1,17,0.66,787.1,M,-38.8,M,,*59
1715240780.554187 GPSRD:$GNGGA,074644.000,4107.6071,N,06939.9441,E,1,17,0.66,787.8,M,-38.8,M,,*50
1715240782.766369 GPSRD:$GNGGA,074646.000,4107.6084,N,06939.9442,E,1,17,0.66,788.4,M,-38.8,M,,*58
1715240784.980483 GPSRD:$GNGGA,074648.000,4107.6094,N,06939.9442,E,1,17,0.66,788.1,M,-38.8,M,,*52
1715240787.19586 GPSRD:$GNGGA,074650.000,4107.6110,N,06939.9437,E,1,17,0.66,788.1,M,-38.8,M,,*54
1715240789.407301 GPSRD:$GNGGA,074653.000,4107.6129,N,06939.9431,E,1,17,0.66,788.1,M,-38.8,M,,*5B
1715240791.623054 GPSRD:$GNGGA,074655.000,4107.6142,N,06939.9430,E,1,17,0.66,787.8,M,-38.8,M,,*57
1715240793.837163 GPSRD:$GNGGA,074657.000,4107.6153,N,06939.9429,E,1,17,0.66,787.8,M,-38.8,M,,*5D
1715240796.047753 GPSRD:$GNGGA,074659.000,4107.6165,N,06939.9428,E,1,17,0.66,787.3,M,-38.8,M,,*5C
1715240798.257715 GPSRD:$GNGGA,074701.000,4107.6177,N,06939.9428,E,1,17,0.66,787.4,M,-38.8,M,,*54
1715240800.473026 GPSRD:$GNGGA,074704.000,4107.6192,N,06939.9435,E,1,17,0.65,788.1,M,-38.8,M,,*5F
1715240802.685432 GPSRD:$GNGGA,074706.000,4107.6201,N,06939.9442,E,1,17,0.65,788.7,M,-38.8,M,,*52
1715240804.897085 GPSRD:$GNGGA,074708.000,4107.6212,N,06939.9452,E,1,17,0.65,789.5,M,-38.8,M,,*5C
1715240807.11205 GPSRD:$GNGGA,074710.000,4107.6220,N,06939.9466,E,1,17,0.65,790.1,M,-38.8,M,,*5F
1715240809.326512 GPSRD:$GNGGA,074712.000,4107.6229,N,06939.9478,E,1,17,0.65,790.9,M,-38.8,M,,*53
1715240811.540431 GPSRD:$GNGGA,074715.000,4107.6238,N,06939.9496,E,1,17,0.65,791.9,M,-38.8,M,,*55
1715240813.75463 GPSRD:$GNGGA,074717.000,4107.6249,N,06939.9508,E,1,17,0.65,792.7,M,-38.8,M,,*5A
1715240815.970035 GPSRD:$GNGGA,074719.000,4107.6259,N,06939.9519,E,1,17,0.65,793.4,M,-38.8,M,,*57
1715240818.181895 GPSRD:$GNGGA,074721.000,4107.6267,N,06939.9529,E,1,17,0.65,794.1,M,-38.8,M,,*50
1715240820.396913 GPSRD:$GNGGA,074723.000,4107.6276,N,06939.9539,E,1,17,0.65,794.6,M,-38.8,M,,*54
1715240822.608361 GPSRD:$GNGGA,074726.000,4107.6290,N,06939.9560,E,1,17,0.65,795.0,M,-38.8,M,,*52
1715240824.821061 GPSRD:$GNGGA,074728.000,4107.6296,N,06939.9574,E,1,17,0.65,795.0,M,-38.8,M,,*5F
1715240827.033459 GPSRD:$GNGGA,074730.000,4107.6305,N,06939.9588,E,1,17,0.65,795.1,M,-38.8,M,,*5F
1715240829.24867 GPSRD:$GNGGA,074732.000,4107.6311,N,06939.9602,E,1,17,0.65,795.4,M,-38.8,M,,*5C
1715240831.460125 GPSRD:$GNGGA,074734.000,4107.6322,N,06939.9614,E,1,17,0.65,795.5,M,-38.8,M,,*5C
1715240833.676715 GPSRD:$GNGGA,074737.000,4107.6331,N,06939.9628,E,1,17,0.65,796.0,M,-38.8,M,,*54
1715240835.890964 GPSRD:$GNGGA,074739.000,4107.6337,N,06939.9638,E,1,17,0.65,796.3,M,-38.8,M,,*5E
1715240838.105856 GPSRD:$GNGGA,074741.000,4107.6346,N,06939.9648,E,1,17,0.65,796.7,M,-38.8,M,,*54
1715240840.31723 GPSRD:$GNGGA,074743.000,4107.6354,N,06939.9657,E,1,17,0.65,796.9,M,-38.8,M,,*55
1715240842.529728 GPSRD:$GNGGA,074746.000,4107.6367,N,06939.9672,E,1,17,0.65,797.1,M,-38.8,M,,*5E
1715240844.741764 GPSRD:$GNGGA,074748.000,4107.6373,N,06939.9681,E,1,17,0.65,797.4,M,-38.8,M,,*5C
1715240846.95411 GPSRD:$GNGGA,074750.000,4107.6380,N,06939.9689,E,1,17,0.65,797.6,M,-38.8,M,,*53
1715240849.168814 GPSRD:$GNGGA,074752.000,4107.6386,N,06939.9699,E,1,17,0.65,797.7,M,-38.8,M,,*57
1715240851.382868 GPSRD:$GNGGA,074754.000,4107.6391,N,06939.9711,E,1,17,0.65,797.7,M,-38.8,M,,*56
1715240853.597142 GPSRD:$GNGGA,074757.000,4107.6396,N,06939.9735,E,1,17,0.65,797.1,M,-38.8,M,,*52
1715240855.811669 GPSRD:$GNGGA,074759.000,4107.6393,N,06939.9749,E,1,17,0.65,797.0,M,-38.8,M,,*53
1715240858.024171 GPSRD:$GNGGA,074801.000,4107.6393,N,06939.9761,E,1,17,0.65,797.2,M,-38.8,M,,*59
1715240860.239223 GPSRD:$GNGGA,074803.000,4107.6394,N,06939.9772,E,1,17,0.65,797.0,M,-38.8,M,,*5C
1715240862.451583 GPSRD:$GNGGA,074805.000,4107.6398,N,06939.9779,E,1,17,0.65,797.0,M,-38.8,M,,*5D
1715240864.666735 GPSRD:$GNGGA,074808.000,4107.6400,N,06939.9800,E,1,17,0.65,796.5,M,-38.8,M,,*53
1715240866.879046 GPSRD:$GNGGA,074810.000,4107.6398,N,06939.9811,E,1,17,0.65,796.1,M,-38.8,M,,*58
1715240869.093445 GPSRD:$GNGGA,074812.000,4107.6395,N,06939.9825,E,1,17,0.65,796.4,M,-38.8,M,,*55
1715240871.306359 GPSRD:$GNGGA,074814.000,4107.6393,N,06939.9837,E,1,17,0.65,796.4,M,-38.8,M,,*56
1715240873.521167 GPSRD:$GNGGA,074817.000,4107.6391,N,06939.9856,E,1,17,0.65,796.8,M,-38.8,M,,*5C
1715240875.732646 GPSRD:$GNGGA,074819.000,4107.6389,N,06939.9866,E,1,17,0.65,797.2,M,-38.8,M,,*53
1715240877.945375 GPSRD:$GNGGA,074821.000,4107.6390,N,06939.9878,E,1,17,0.65,797.6,M,-38.8,M,,*5B
1715240880.156757 GPSRD:$GNGGA,074823.000,4107.6392,N,06939.9884,E,1,17,0.65,798.0,M,-38.8,M,,*51
1715240882.368819 GPSRD:$GNGGA,074825.000,4107.6395,N,06939.9890,E,1,17,0.65,798.4,M,-38.8,M,,*51
1715240884.580758 GPSRD:$GNGGA,074828.000,4107.6397,N,06939.9903,E,1,17,0.65,798.7,M,-38.8,M,,*56
1715240886.793853 GPSRD:$GNGGA,074830.000,4107.6395,N,06939.9914,E,1,17,0.65,798.8,M,-38.8,M,,*54
1715240889.005883 GPSRD:$GNGGA,074832.000,4107.6393,N,06939.9923,E,1,17,0.65,799.0,M,-38.8,M,,*5D
1715240891.219577 GPSRD:$GNGGA,074834.000,4107.6391,N,06939.9931,E,1,17,0.65,799.3,M,-38.8,M,,*59
1715240893.434307 GPSRD:$GNGGA,074836.000,4107.6386,N,06939.9942,E,1,17,0.65,799.6,M,-38.8,M,,*5C
1715240895.650798 GPSRD:$GNGGA,074839.000,4107.6384,N,06939.9954,E,1,17,0.65,800.6,M,-38.8,M,,*59
1715240897.862764 GPSRD:$GNGGA,074841.000,4107.6386,N,06939.9963,E,1,17,0.65,801.1,M,-38.8,M,,*56
1715240900.078063 GPSRD:$GNGGA,074843.000,4107.6386,N,06939.9972,E,1,17,0.65,801.5,M,-38.8,M,,*50
1715240902.291947 GPSRD:$GNGGA,074845.000,4107.6383,N,06939.9980,E,1,17,0.65,801.9,M,-38.8,M,,*52
1715240904.503932 GPSRD:$GNGGA,074848.000,4107.6378,N,06939.9986,E,1,17,0.65,802.8,M,-38.8,M,,*5F
1715240906.716805 GPSRD:$GNGGA,074850.000,4107.6373,N,06939.9992,E,1,17,0.65,803.1,M,-38.8,M,,*50
1715240908.928676 GPSRD:$GNGGA,074852.000,4107.6371,N,06940.0003,E,1,17,0.65,803.3,M,-38.8,M,,*54
1715240911.142013 GPSRD:$GNGGA,074854.000,4107.6366,N,06940.0013,E,1,17,0.65,803.6,M,-38.8,M,,*50
1715240913.353493 GPSRD:$GNGGA,074856.000,4107.6366,N,06940.0024,E,1,17,0.65,803.9,M,-38.8,M,,*59
1715240915.567153 GPSRD:$GNGGA,074859.000,4107.6361,N,06940.0036,E,1,17,0.65,804.3,M,-38.8,M,,*5F
1715240917.782309 GPSRD:$GNGGA,074901.000,4107.6359,N,06940.0046,E,1,17,0.65,804.8,M,-38.8,M,,*54
1715240919.997123 GPSRD:$GNGGA,074903.000,4107.6358,N,06940.0055,E,1,17,0.65,805.4,M,-38.8,M,,*58
1715240922.207874 GPSRD:$GNGGA,074905.000,4107.6362,N,06940.0054,E,1,17,0.66,806.1,M,-38.8,M,,*53
1715240924.419374 GPSRD:$GNGGA,074908.000,4107.6369,N,06940.0059,E,1,17,0.65,806.6,M,-38.8,M,,*5C
1715240926.631963 GPSRD:$GNGGA,074910.000,4107.6370,N,06940.0065,E,1,17,0.65,806.8,M,-38.8,M,,*5C
1715240928.845798 GPSRD:$GNGGA,074912.000,4107.6372,N,06940.0063,E,1,17,0.65,807.1,M,-38.8,M,,*52
1715240931.058612 GPSRD:$GNGGA,074914.000,4107.6376,N,06940.0064,E,1,17,0.66,807.5,M,-38.8,M,,*50
1715240933.269836 GPSRD:$GNGGA,074916.000,4107.6383,N,06940.0076,E,1,17,0.65,807.9,M,-38.8,M,,*54
1715240935.484203 GPSRD:$GNGGA,074919.000,4107.6388,N,06940.0100,E,1,17,0.65,808.8,M,-38.8,M,,*5E
1715240937.698916 GPSRD:$GNGGA,074921.000,4107.6390,N,06940.0118,E,1,17,0.65,809.1,M,-38.8,M,,*5D
1715240939.913561 GPSRD:$GNGGA,074923.000,4107.6389,N,06940.0135,E,1,17,0.65,809.3,M,-38.8,M,,*5A
1715240942.127913 GPSRD:$GNGGA,074925.000,4107.6383,N,06940.0150,E,1,17,0.65,809.6,M,-38.8,M,,*50
1715240944.339091 GPSRD:$GNGGA,074927.000,4107.6382,N,06940.0167,E,1,17,0.65,809.9,M,-38.8,M,,*58
1715240946.551559 GPSRD:$GNGGA,074930.000,4107.6374,N,06940.0185,E,1,17,0.65,810.8,M,-38.8,M,,*52
1715240948.762609 GPSRD:$GNGGA,074932.000,4107.6368,N,06940.0199,E,1,17,0.65,811.4,M,-38.8,M,,*5D
1715240950.977263 GPSRD:$GNGGA,074934.000,4107.6363,N,06940.0213,E,1,17,0.65,811.9,M,-38.8,M,,*5C
1715240953.188627 GPSRD:$GNGGA,074936.000,4107.6354,N,06940.0222,E,1,17,0.65,812.3,M,-38.8,M,,*51
1715240955.401223 GPSRD:$GNGGA,074939.000,4107.6345,N,06940.0239,E,1,17,0.65,812.8,M,-38.8,M,,*5F
1715240957.615977 GPSRD:$GNGGA,074941.000,4107.6338,N,06940.0248,E,1,17,0.65,812.9,M,-38.8,M,,*5D
1715240959.83046 GPSRD:$GNGGA,074943.000,4107.6330,N,06940.0256,E,1,17,0.65,813.2,M,-38.8,M,,*52
1715240962.044964 GPSRD:$GNGGA,074945.000,4107.6317,N,06940.0265,E,1,17,0.65,813.0,M,-38.8,M,,*53
1715240964.255854 GPSRD:$GNGGA,074947.000,4107.6309,N,06940.0276,E,1,17,0.65,813.1,M,-38.8,M,,*5D
1715240966.470267 GPSRD:$GNGGA,074950.000,4107.6293,N,06940.0288,E,1,17,0.65,813.0,M,-38.8,M,,*59
1715240968.685776 GPSRD:$GNGGA,074952.000,4107.6286,N,06940.0295,E,1,17,0.65,813.1,M,-38.8,M,,*52
1715240970.900328 GPSRD:$GNGGA,074954.000,4107.6279,N,06940.0299,E,1,17,0.65,813.3,M,-38.8,M,,*5A
1715240973.114021 GPSRD:$GNGGA,074956.000,4107.6271,N,06940.0299,E,1,17,0.65,813.3,M,-38.8,M,,*50
1715240975.3279 GPSRD:$GNGGA,074958.000,4107.6275,N,06940.0295,E,1,17,0.65,813.3,M,-38.8,M,,*56
1715240977.540059 GPSRD:$GNGGA,075001.000,4107.6292,N,06940.0288,E,1,17,0.65,813.7,M,-38.8,M,,*53
1715240979.75461 GPSRD:$GNGGA,075003.000,4107.6300,N,06940.0277,E,1,17,0.65,814.0,M,-38.8,M,,*5B
1715240981.967153 GPSRD:$GNGGA,075005.000,4107.6308,N,06940.0268,E,1,17,0.65,814.1,M,-38.8,M,,*5A
1715240984.178026 GPSRD:$GNGGA,075007.000,4107.6318,N,06940.0255,E,1,17,0.65,814.2,M,-38.8,M,,*54
1715240986.389483 GPSRD:$GNGGA,075010.000,4107.6336,N,06940.0239,E,1,17,0.65,814.4,M,-38.8,M,,*52
1715240988.6027 GPSRD:$GNGGA,075012.000,4107.6346,N,06940.0226,E,1,17,0.65,814.7,M,-38.8,M,,*5A
1715240990.815241 GPSRD:$GNGGA,075014.000,4107.6357,N,06940.0215,E,1,17,0.65,814.7,M,-38.8,M,,*5C
1715240993.029441 GPSRD:$GNGGA,075016.000,4107.6362,N,06940.0201,E,1,17,0.65,814.6,M,-38.8,M,,*5C
1715240995.240637 GPSRD:$GNGGA,075018.000,4107.6370,N,06940.0190,E,1,17,0.65,814.3,M,-38.8,M,,*5F
1715240997.45491 GPSRD:$GNGGA,075021.000,4107.6381,N,06940.0178,E,1,17,0.66,813.9,M,-38.8,M,,*53
1715240999.66727 GPSRD:$GNGGA,075023.000,4107.6391,N,06940.0176,E,1,17,0.66,813.7,M,-38.8,M,,*50
1715241001.882066 GPSRD:$GNGGA,075025.000,4107.6399,N,06940.0165,E,1,17,0.65,814.0,M,-38.8,M,,*5F
1715241004.093463 GPSRD:$GNGGA,075027.000,4107.6408,N,06940.0152,E,1,17,0.65,813.9,M,-38.8,M,,*58
1715241006.304362 GPSRD:$GNGGA,075029.000,4107.6417,N,06940.0144,E,1,17,0.65,814.3,M,-38.8,M,,*52
1715241008.516666 GPSRD:$GNGGA,075032.000,4107.6431,N,06940.0153,E,1,17,0.66,816.2,M,-38.8,M,,*5A
1715241010.728173 GPSRD:$GNGGA,075034.000,4107.6439,N,06940.0162,E,1,17,0.65,817.1,M,-38.8,M,,*57
1715241012.940197 GPSRD:$GNGGA,075036.000,4107.6448,N,06940.0170,E,1,17,0.65,817.9,M,-38.8,M,,*58
1715241015.150523 GPSRD:$GNGGA,075038.000,4107.6453,N,06940.0179,E,1,17,0.65,818.2,M,-38.8,M,,*51
1715241017.365104 GPSRD:$GNGGA,075040.000,4107.6458,N,06940.0193,E,1,17,0.65,818.6,M,-38.8,M,,*55
1715241019.57833 GPSRD:$GNGGA,075043.000,4107.6464,N,06940.0215,E,1,17,0.65,818.9,M,-38.8,M,,*5B
1715241021.793315 GPSRD:$GNGGA,075045.000,4107.6468,N,06940.0229,E,1,17,0.65,819.0,M,-38.8,M,,*56
1715241024.007539 GPSRD:$GNGGA,075047.000,4107.6475,N,06940.0240,E,1,17,0.65,819.2,M,-38.8,M,,*55
1715241026.218517 GPSRD:$GNGGA,075049.000,4107.6486,N,06940.0246,E,1,17,0.66,819.5,M,-38.8,M,,*55
1715241028.430068 GPSRD:$GNGGA,075052.000,4107.6497,N,06940.0257,E,1,17,0.65,819.8,M,-38.8,M,,*51
1715241030.644986 GPSRD:$GNGGA,075054.000,4107.6503,N,06940.0267,E,1,17,0.65,820.1,M,-38.8,M,,*5B
1715241032.858448 GPSRD:$GNGGA,075056.000,4107.6506,N,06940.0281,E,1,17,0.65,820.5,M,-38.8,M,,*50
1715241035.070063 GPSRD:$GNGGA,075058.000,4107.6512,N,06940.0295,E,1,17,0.65,820.9,M,-38.8,M,,*52
1715241037.283228 GPSRD:$GNGGA,075100.000,4107.6517,N,06940.0309,E,1,17,0.65,821.3,M,-38.8,M,,*54
1715241039.49716 GPSRD:$GNGGA,075103.000,4107.6534,N,06940.0315,E,1,17,0.66,821.8,M,-38.8,M,,*53
1715241041.70957 GPSRD:$GNGGA,075105.000,4107.6546,N,06940.0320,E,1,17,0.65,822.1,M,-38.8,M,,*5F
1715241043.922431 GPSRD:$GNGGA,075107.000,4107.6556,N,06940.0324,E,1,17,0.65,822.5,M,-38.8,M,,*5C
1715241046.133321 GPSRD:$GNGGA,075109.000,4107.6567,N,06940.0331,E,1,17,0.65,822.3,M,-38.8,M,,*52
1715241048.347234 GPSRD:$GNGGA,075111.000,4107.6576,N,06940.0340,E,1,17,0.65,822.0,M,-38.8,M,,*5E
1715241050.559071 GPSRD:$GNGGA,075114.000,4107.6595,N,06940.0349,E,1,17,0.65,822.1,M,-38.8,M,,*5E
1715241052.771142 GPSRD:$GNGGA,075116.000,4107.6613,N,06940.0354,E,1,17,0.66,821.5,M,-38.8,M,,*59
1715241054.983829 GPSRD:$GNGGA,075118.000,4107.6631,N,06940.0355,E,1,17,0.66,820.5,M,-38.8,M,,*57
1715241057.197817 GPSRD:$GNGGA,075120.000,4107.6645,N,06940.0358,E,1,17,0.66,819.3,M,-38.8,M,,*5E
1715241059.410302 GPSRD:$GNGGA,075122.000,4107.6659,N,06940.0363,E,1,17,0.66,819.0,M,-38.8,M,,*5A
1715241061.623236 GPSRD:$GNGGA,075125.000,4107.6676,N,06940.0372,E,1,17,0.65,818.7,M,-38.8,M,,*55
1715241063.834727 GPSRD:$GNGGA,075127.000,4107.6690,N,06940.0378,E,1,17,0.65,818.4,M,-38.8,M,,*56
1715241066.049234 GPSRD:$GNGGA,075129.000,4107.6704,N,06940.0383,E,1,17,0.66,818.2,M,-38.8,M,,*55
1715241068.262155 GPSRD:$GNGGA,075131.000,4107.6714,N,06940.0390,E,1,15,0.71,817.8,M,-38.8,M,,*5E
1715241070.473865 GPSRD:$GNGGA,075133.000,4107.6727,N,06940.0398,E,1,16,0.69,817.3,M,-38.8,M,,*55
1715241072.685874 GPSRD:$GNGGA,075136.000,4107.6747,N,06940.0404,E,1,16,0.70,817.1,M,-38.8,M,,*5E
1715241074.900936 GPSRD:$GNGGA,075138.000,4107.6761,N,06940.0409,E,1,16,0.70,817.1,M,-38.8,M,,*59
1715241077.112157 GPSRD:$GNGGA,075140.000,4107.6772,N,06940.0410,E,1,16,0.70,817.2,M,-38.8,M,,*5F
1715241079.325472 GPSRD:$GNGGA,075142.000,4107.6782,N,06940.0415,E,1,16,0.69,817.3,M,-38.8,M,,*5E
1715241081.536611 GPSRD:$GNGGA,075145.000,4107.6795,N,06940.0420,E,1,16,0.70,817.5,M,-38.8,M,,*57
1715241083.750847 GPSRD:$GNGGA,075147.000,4107.6804,N,06940.0428,E,1,16,0.69,817.4,M,-38.8,M,,*53
1715241085.96223 GPSRD:$GNGGA,075149.000,4107.6813,N,06940.0433,E,1,17,0.65,817.3,M,-38.8,M,,*5B
1715241088.173209 GPSRD:$GNGGA,075151.000,4107.6823,N,06940.0436,E,1,17,0.66,817.4,M,-38.8,M,,*50
1715241090.383984 GPSRD:$GNGGA,075154.000,4107.6844,N,06940.0447,E,1,17,0.66,817.8,M,-38.8,M,,*5E
1715241092.59669 GPSRD:$GNGGA,075156.000,4107.6854,N,06940.0454,E,1,17,0.65,818.0,M,-38.8,M,,*5B
1715241094.808265 GPSRD:$GNGGA,075158.000,4107.6864,N,06940.0457,E,1,17,0.66,818.2,M,-38.8,M,,*54
1715241097.019643 GPSRD:$GNGGA,075200.000,4107.6875,N,06940.0465,E,1,17,0.65,818.4,M,-38.8,M,,*5E
1715241099.230441 GPSRD:$GNGGA,075202.000,4107.6887,N,06940.0471,E,1,17,0.65,818.8,M,-38.8,M,,*58
1715241101.445106 GPSRD:$GNGGA,075205.000,4107.6903,N,06940.0478,E,1,17,0.65,819.0,M,-38.8,M,,*52
1715241103.659977 GPSRD:$GNGGA,075207.000,4107.6914,N,06940.0484,E,1,17,0.65,819.1,M,-38.8,M,,*54
1715241105.871799 GPSRD:$GNGGA,075209.000,4107.6925,N,06940.0490,E,1,17,0.65,818.9,M,-38.8,M,,*54
1715241108.083688 GPSRD:$GNGGA,075211.000,4107.6935,N,06940.0495,E,1,17,0.66,818.8,M,-38.8,M,,*5B
1715241110.294343 GPSRD:$GNGGA,075213.000,4107.6946,N,06940.0503,E,1,17,0.65,819.2,M,-38.8,M,,*5B
1715241112.505699 GPSRD:$GNGGA,075216.000,4107.6964,N,06940.0514,E,1,17,0.65,819.4,M,-38.8,M,,*5E
1715241114.720176 GPSRD:$GNGGA,075218.000,4107.6976,N,06940.0519,E,1,17,0.66,819.2,M,-38.8,M,,*5B
1715241116.934975 GPSRD:$GNGGA,075220.000,4107.6989,N,06940.0526,E,1,17,0.65,819.0,M,-38.8,M,,*5D
1715241119.149002 GPSRD:$GNGGA,075222.000,4107.7000,N,06940.0532,E,1,17,0.65,818.7,M,-38.8,M,,*55
1715241121.363895 GPSRD:$GNGGA,075224.000,4107.7011,N,06940.0540,E,1,17,0.65,818.7,M,-38.8,M,,*56
1715241123.576538 GPSRD:$GNGGA,075227.000,4107.7028,N,06940.0551,E,1,17,0.65,818.6,M,-38.8,M,,*5E
1715241125.788299 GPSRD:$GNGGA,075229.000,4107.7038,N,06940.0555,E,1,17,0.65,818.7,M,-38.8,M,,*54
1715241128.002991 GPSRD:$GNGGA,075231.000,4107.7047,N,06940.0565,E,1,17,0.65,818.9,M,-38.8,M,,*58
1715241130.214316 GPSRD:$GNGGA,075233.000,4107.7058,N,06940.0575,E,1,17,0.65,819.1,M,-38.8,M,,*5C
1715241132.430044 GPSRD:$GNGGA,075236.000,4107.7074,N,06940.0594,E,1,17,0.65,819.3,M,-38.8,M,,*5A
1715241134.641752 GPSRD:$GNGGA,075238.000,4107.7083,N,06940.0602,E,1,17,0.65,819.6,M,-38.8,M,,*55
1715241136.854002 GPSRD:$GNGGA,075240.000,4107.7092,N,06940.0612,E,1,17,0.65,819.8,M,-38.8,M,,*55
1715241139.065724 GPSRD:$GNGGA,075242.000,4107.7101,N,06940.0626,E,1,17,0.65,820.2,M,-38.8,M,,*5B
1715241141.276796 GPSRD:$GNGGA,075244.000,4107.7112,N,06940.0627,E,1,17,0.66,820.6,M,-38.8,M,,*59
1715241143.488339 GPSRD:$GNGGA,075247.000,4107.7123,N,06940.0640,E,1,17,0.65,821.9,M,-38.8,M,,*54
1715241145.700243 GPSRD:$GNGGA,075249.000,4107.7133,N,06940.0654,E,1,17,0.65,822.5,M,-38.8,M,,*51
1715241147.913116 GPSRD:$GNGGA,075251.000,4107.7143,N,06940.0663,E,1,17,0.65,823.0,M,-38.8,M,,*5F
1715241150.127369 GPSRD:$GNGGA,075253.000,4107.7153,N,06940.0672,E,1,17,0.65,823.4,M,-38.8,M,,*58
1715241152.339234 GPSRD:$GNGGA,075255.000,4107.7157,N,06940.0684,E,1,17,0.65,823.6,M,-38.8,M,,*51
1715241154.551137 GPSRD:$GNGGA,075258.000,4107.7164,N,06940.0706,E,1,17,0.65,823.8,M,-38.8,M,,*59
1715241156.767295 GPSRD:$GNGGA,075300.000,4107.7167,N,06940.0720,E,1,17,0.65,823.9,M,-38.8,M,,*53
1715241158.979062 GPSRD:$GNGGA,075302.000,4107.7171,N,06940.0735,E,1,17,0.65,824.0,M,-38.8,M,,*5C
1715241161.190189 GPSRD:$GNGGA,075304.000,4107.7175,N,06940.0747,E,1,17,0.65,824.3,M,-38.8,M,,*58
1715241163.401529 GPSRD:$GNGGA,075306.000,4107.7180,N,06940.0755,E,1,17,0.65,824.6,M,-38.8,M,,*56
1715241165.615453 GPSRD:$GNGGA,075309.000,4107.7187,N,06940.0774,E,1,17,0.65,825.1,M,-38.8,M,,*5B
1715241167.828719 GPSRD:$GNGGA,075311.000,4107.7194,N,06940.0784,E,1,17,0.65,825.6,M,-38.8,M,,*58
1715241170.042424 GPSRD:$GNGGA,075313.000,4107.7200,N,06940.0797,E,1,17,0.65,825.4,M,-38.8,M,,*54
1715241172.254208 GPSRD:$GNGGA,075315.000,4107.7210,N,06940.0801,E,1,17,0.66,825.7,M,-38.8,M,,*53
1715241174.469013 GPSRD:$GNGGA,075318.000,4107.7220,N,06940.0815,E,1,17,0.65,826.0,M,-38.8,M,,*5F
1715241176.681842 GPSRD:$GNGGA,075320.000,4107.7231,N,06940.0824,E,1,17,0.65,826.2,M,-38.8,M,,*54
1715241178.896453 GPSRD:$GNGGA,075322.000,4107.7239,N,06940.0838,E,1,17,0.65,826.3,M,-38.8,M,,*52
1715241181.107685 GPSRD:$GNGGA,075324.000,4107.7247,N,06940.0854,E,1,15,0.72,826.4,M,-38.8,M,,*54
1715241183.321886 GPSRD:$GNGGA,075326.000,4107.7254,N,06940.0866,E,1,15,0.72,826.4,M,-38.8,M,,*55
1715241185.535578 GPSRD:$GNGGA,075329.000,4107.7264,N,06940.0889,E,1,16,0.70,826.7,M,-38.8,M,,*5A
1715241187.750983 GPSRD:$GNGGA,075331.000,4107.7269,N,06940.0898,E,1,16,0.70,826.9,M,-38.8,M,,*50
1715241189.962934 GPSRD:$GNGGA,075333.000,4107.7277,N,06940.0911,E,1,16,0.70,827.0,M,-38.8,M,,*55
1715241192.174709 GPSRD:$GNGGA,075336.000,4107.7287,N,06940.0934,E,1,16,0.70,826.9,M,-38.8,M,,*50
1715241194.38569 GPSRD:$GNGGA,075337.000,4107.7289,N,06940.0944,E,1,16,0.70,826.9,M,-38.8,M,,*58
1715241196.59752 GPSRD:$GNGGA,075340.000,4107.7299,N,06940.0963,E,1,16,0.70,826.9,M,-38.8,M,,*5C
1715241198.80974 GPSRD:$GNGGA,075342.000,4107.7300,N,06940.0965,E,1,16,0.70,827.2,M,-38.8,M,,*53
1715241201.021924 GPSRD:$GNGGA,075344.000,4107.7305,N,06940.0972,E,1,16,0.70,827.4,M,-38.8,M,,*50
1715241203.233153 GPSRD:$GNGGA,075346.000,4107.7315,N,06940.0978,E,1,16,0.70,827.7,M,-38.8,M,,*5A
1715241205.447996 GPSRD:$GNGGA,075349.000,4107.7327,N,06940.0991,E,1,16,0.70,828.2,M,-38.8,M,,*59
1715241207.659201 GPSRD:$GNGGA,075351.000,4107.7338,N,06940.0997,E,1,16,0.70,828.6,M,-38.8,M,,*5C
1715241209.87471 GPSRD:$GNGGA,075353.000,4107.7349,N,06940.1000,E,1,16,0.70,828.8,M,-38.8,M,,*50
1715241212.088257 GPSRD:$GNGGA,075355.000,4107.7355,N,06940.1003,E,1,16,0.70,828.9,M,-38.8,M,,*59
1715241214.302025 GPSRD:$GNGGA,075357.000,4107.7364,N,06940.1002,E,1,16,0.73,828.6,M,-38.8,M,,*54
1715241216.514275 GPSRD:$GNGGA,075400.000,4107.7376,N,06940.0998,E,1,16,0.74,828.3,M,-38.8,M,,*5B
1715241218.727435 GPSRD:$GNGGA,075402.000,4107.7388,N,06940.1000,E,1,16,0.73,828.2,M,-38.8,M,,*57
1715241220.941836 GPSRD:$GNGGA,075404.000,4107.7397,N,06940.1010,E,1,16,0.70,828.0,M,-38.8,M,,*5F
1715241223.153639 GPSRD:$GNGGA,075407.000,4107.7411,N,06940.1023,E,1,16,0.70,827.4,M,-38.8,M,,*5E
1715241225.367382 GPSRD:$GNGGA,075408.000,4107.7414,N,06940.1027,E,1,16,0.70,827.4,M,-38.8,M,,*50
1715241227.57957 GPSRD:$GNGGA,075411.000,4107.7430,N,06940.1036,E,1,16,0.70,827.1,M,-38.8,M,,*5B
1715241229.791854 GPSRD:$GNGGA,075413.000,4107.7436,N,06940.1043,E,1,16,0.70,827.0,M,-38.8,M,,*5C
1715241232.003864 GPSRD:$GNGGA,075415.000,4107.7447,N,06940.1048,E,1,16,0.73,826.7,M,-38.8,M,,*52
1715241234.217254 GPSRD:$GNGGA,075417.000,4107.7455,N,06940.1052,E,1,17,0.65,826.7,M,-38.8,M,,*5E
1715241236.428896 GPSRD:$GNGGA,075419.000,4107.7462,N,06940.1056,E,1,17,0.65,826.5,M,-38.8,M,,*52
1715241238.643366 GPSRD:$GNGGA,075422.000,4107.7462,N,06940.1054,E,1,17,0.65,826.0,M,-38.8,M,,*5D
1715241240.858173 GPSRD:$GNGGA,075424.000,4107.7454,N,06940.1045,E,1,17,0.65,825.8,M,-38.8,M,,*55
1715241243.071235 GPSRD:$GNGGA,075426.000,4107.7446,N,06940.1031,E,1,17,0.65,825.7,M,-38.8,M,,*58
1715241245.285775 GPSRD:$GNGGA,075428.000,4107.7440,N,06940.1022,E,1,17,0.65,825.6,M,-38.8,M,,*53
1715241247.499046 GPSRD:$GNGGA,075431.000,4107.7429,N,06940.1000,E,1,17,0.65,825.3,M,-38.8,M,,*51
1715241249.713815 GPSRD:$GNGGA,075433.000,4107.7427,N,06940.0986,E,1,17,0.65,825.3,M,-38.8,M,,*5B
1715241251.925719 GPSRD:$GNGGA,075435.000,4107.7417,N,06940.0975,E,1,17,0.65,825.5,M,-38.8,M,,*54
1715241254.139349 GPSRD:$GNGGA,075437.000,4107.7413,N,06940.0959,E,1,17,0.65,825.6,M,-38.8,M,,*5F
1715241256.353662 GPSRD:$GNGGA,075439.000,4107.7406,N,06940.0946,E,1,17,0.65,825.4,M,-38.8,M,,*59
1715241258.568455 GPSRD:$GNGGA,075442.000,4107.7403,N,06940.0929,E,1,17,0.65,825.4,M,-38.8,M,,*59
1715241260.781699 GPSRD:$GNGGA,075444.000,4107.7397,N,06940.0912,E,1,17,0.65,825.5,M,-38.8,M,,*5C
1715241262.994288 GPSRD:$GNGGA,075446.000,4107.7405,N,06940.0903,E,1,17,0.65,825.4,M,-38.8,M,,*53
1715241265.206011 GPSRD:$GNGGA,075448.000,4107.7415,N,06940.0901,E,1,17,0.66,825.2,M,-38.8,M,,*5B
1715241267.419205 GPSRD:$GNGGA,075451.000,4107.7428,N,06940.0891,E,1,17,0.65,825.2,M,-38.8,M,,*56
1715241269.630894 GPSRD:$GNGGA,075453.000,4107.7434,N,06940.0879,E,1,17,0.65,825.2,M,-38.8,M,,*5F
1715241271.844582 GPSRD:$GNGGA,075455.000,4107.7444,N,06940.0868,E,1,17,0.65,825.0,M,-38.8,M,,*5C
1715241274.059879 GPSRD:$GNGGA,075457.000,4107.7460,N,06940.0862,E,1,17,0.65,824.5,M,-38.8,M,,*56
1715241276.272932 GPSRD:$GNGGA,075459.000,4107.7475,N,06940.0856,E,1,17,0.66,824.0,M,-38.8,M,,*5D
1715241278.485061 GPSRD:$GNGGA,075502.000,4107.7496,N,06940.0848,E,1,17,0.66,823.2,M,-38.8,M,,*55
1715241280.696633 GPSRD:$GNGGA,075504.000,4107.7506,N,06940.0842,E,1,17,0.65,822.4,M,-38.8,M,,*55
1715241282.911188 GPSRD:$GNGGA,075506.000,4107.7512,N,06940.0827,E,1,17,0.65,821.9,M,-38.8,M,,*5F
1715241285.126607 GPSRD:$GNGGA,075509.000,4107.7524,N,06940.0811,E,1,17,0.65,820.7,M,-38.8,M,,*5F
1715241287.337971 GPSRD:$GNGGA,075510.000,4107.7525,N,06940.0802,E,1,17,0.65,820.2,M,-38.8,M,,*51
1715241289.553074 GPSRD:$GNGGA,075513.000,4107.7536,N,06940.0796,E,1,17,0.66,819.6,M,-38.8,M,,*5F
